---
header:
  frame_id: map
  seq: 0
pose:
  orientation:
    w: 0.7071067811865476
    z: -0.7071067811865475
  position:
    x: 2.3225424859373693
    y: -1.2305368692688177
---
header:
  frame_id: map
  seq: 1
pose:
  orientation:
    w: 0.7509508000818175
    z: -0.6603581572574676
  position:
    x: 2.3545498909795803
    y: -1.7291682815882878
---
header:
  frame_id: map
  seq: 2
pose:
  orientation:
    w: 0.7917101144712119
    z: -0.6108969591052001
  position:
    x: 2.450046734835682
    y: -2.219615131045769
---
header:
  frame_id: map
  seq: 3
pose:
  orientation:
    w: 0.8292172960215567
    z: -0.5589263600678519
  position:
    x: 2.6074655271664153
    y: -2.6938271966349725
---
header:
  frame_id: map
  seq: 4
pose:
  orientation:
    w: 0.8633182752892632
    z: -0.5046598414294247
  position:
    x: 2.8242223874346597
    y: -3.1440207359665564
---
header:
  frame_id: map
  seq: 5
pose:
  orientation:
    w: 0.8910065241883679
    z: -0.45399049973954675
  position:
    x: 3.067376207875074
    y: -3.522899353209463
---
header:
  frame_id: map
  seq: 6
pose:
  orientation:
    w: 0.9574776984487322
    z: -0.2885072910228069
  position:
    x: 3.426529968416252
    y: -3.866937920474708
---
header:
  frame_id: map
  seq: 7
pose:
  orientation:
    w: 0.9934981047414574
    z: -0.11384865337425891
  position:
    x: 3.8832964202068587
    y: -4.06370775554963
---
header:
  frame_id: map
  seq: 8
pose:
  orientation:
    w: 0.9979221821454933
    z: 0.06443072544971754
  position:
    x: 4.380031180386398
    y: -4.0883763085304645
---
header:
  frame_id: map
  seq: 9
pose:
  orientation:
    w: 0.970609231243277
    z: 0.24066100686512282
  position:
    x: 4.854045825618051
    y: -3.9378303833690627
---
header:
  frame_id: map
  seq: 10
pose:
  orientation:
    w: 0.9124278887996988
    z: 0.40923751995696156
  position:
    x: 5.245519233785474
    y: -3.6310690263265313
---
header:
  frame_id: map
  seq: 11
pose:
  orientation:
    w: 0.8910065241883679
    z: 0.45399049973954675
  position:
    x: 5.332623792124926
    y: -3.5228993532094623
---
header:
  frame_id: map
  seq: 12
pose:
  orientation:
    w: 0.8600944877131195
    z: 0.5101347588681902
  position:
    x: 5.599817447991088
    y: -3.1006845860658663
---
header:
  frame_id: map
  seq: 13
pose:
  orientation:
    w: 0.825649413732034
    z: 0.5641835212091438
  position:
    x: 5.810836303546745
    y: -2.647773113558019
---
header:
  frame_id: map
  seq: 14
pose:
  orientation:
    w: 0.7878127933719643
    z: 0.6159147689408516
  position:
    x: 5.962216683929686
    y: -2.1715990489930093
---
header:
  frame_id: map
  seq: 15
pose:
  orientation:
    w: 0.7467400493227846
    z: 0.6651160039702888
  position:
    x: 6.051473823421777
    y: -1.679978339117057
---
header:
  frame_id: map
  seq: 16
pose:
  orientation:
    w: 0.7135889199782142
    z: 0.7005646674535662
  position:
    x: 6.060682970137451
    y: -1.18006315469397
---
header:
  frame_id: map
  seq: 17
pose:
  orientation:
    w: 0.7135889199782142
    z: 0.7005646674535662
  position:
    x: 6.069892116853126
    y: -0.6801479702708828
---
header:
  frame_id: map
  seq: 18
pose:
  orientation:
    w: 0.7071067811865476
    z: 0.7071067811865475
  position:
    x: 6.0774575140626315
    y: -0.269463130731183
---
header:
  frame_id: map
  seq: 19
pose:
  orientation:
    w: 0.6603581572574675
    z: 0.7509508000818176
  position:
    x: 6.04545010902042
    y: 0.2291682815882874
---
header:
  frame_id: map
  seq: 20
pose:
  orientation:
    w: 0.6108969591052001
    z: 0.7917101144712119
  position:
    x: 5.949953265164319
    y: 0.7196151310457686
---
header:
  frame_id: map
  seq: 21
pose:
  orientation:
    w: 0.558926360067852
    z: 0.8292172960215566
  position:
    x: 5.7925344728335855
    y: 1.1938271966349723
---
header:
  frame_id: map
  seq: 22
pose:
  orientation:
    w: 0.5046598414294245
    z: 0.8633182752892632
  position:
    x: 5.575777612565341
    y: 1.6440207359665564
---
header:
  frame_id: map
  seq: 23
pose:
  orientation:
    w: 0.4539904997395468
    z: 0.8910065241883678
  position:
    x: 5.332623792124926
    y: 2.0228993532094623
---
header:
  frame_id: map
  seq: 24
pose:
  orientation:
    w: 0.2885072910228068
    z: 0.9574776984487322
  position:
    x: 4.973470031583748
    y: 2.3669379204747076
---
header:
  frame_id: map
  seq: 25
pose:
  orientation:
    w: 0.11384865337425897
    z: 0.9934981047414574
  position:
    x: 4.516703579793141
    y: 2.56370775554963
---
header:
  frame_id: map
  seq: 26
pose:
  orientation:
    w: 0.06443072544971738
    z: -0.9979221821454933
  position:
    x: 4.019968819613602
    y: 2.5883763085304645
---
header:
  frame_id: map
  seq: 27
pose:
  orientation:
    w: 0.24066100686512262
    z: -0.9706092312432771
  position:
    x: 3.545954174381949
    y: 2.4378303833690627
---
header:
  frame_id: map
  seq: 28
pose:
  orientation:
    w: 0.4092375199569614
    z: -0.9124278887996988
  position:
    x: 3.154480766214526
    y: 2.1310690263265313
---
header:
  frame_id: map
  seq: 29
pose:
  orientation:
    w: 0.45399049973954664
    z: -0.8910065241883679
  position:
    x: 3.067376207875075
    y: 2.0228993532094623
---
header:
  frame_id: map
  seq: 30
pose:
  orientation:
    w: 0.5101347588681898
    z: -0.8600944877131197
  position:
    x: 2.8001825520089136
    y: 1.6006845860658663
---
header:
  frame_id: map
  seq: 31
pose:
  orientation:
    w: 0.564183521209144
    z: -0.825649413732034
  position:
    x: 2.5891636964532565
    y: 1.1477731135580191
---
header:
  frame_id: map
  seq: 32
pose:
  orientation:
    w: 0.6159147689408517
    z: -0.7878127933719642
  position:
    x: 2.4377833160703157
    y: 0.6715990489930097
---
header:
  frame_id: map
  seq: 33
pose:
  orientation:
    w: 0.6651160039702887
    z: -0.7467400493227847
  position:
    x: 2.348526176578224
    y: 0.17997833911705752
---
header:
  frame_id: map
  seq: 34
pose:
  orientation:
    w: 0.700564667453566
    z: -0.7135889199782144
  position:
    x: 2.33931702986255
    y: -0.3199368453060295
---
header:
  frame_id: map
  seq: 35
pose:
  orientation:
    w: 0.700564667453566
    z: -0.7135889199782144
  position:
    x: 2.330107883146876
    y: -0.8198520297291165
