---
header:
  frame_id: map
  seq: 0
pose:
  orientation:
    w: 0.7071067811865476
    z: 0.7071067811865475
  position:
    x: 2.1225424859373683
    y: -0.2694631307311825
---
header:
  frame_id: map
  seq: 1
pose:
  orientation:
    w: 0.7509508000818175
    z: 0.6603581572574676
  position:
    x: 2.1545498909795793
    y: 0.22916828158828773
---
header:
  frame_id: map
  seq: 2
pose:
  orientation:
    w: 0.7917101144712119
    z: 0.6108969591052001
  position:
    x: 2.250046734835681
    y: 0.7196151310457688
---
header:
  frame_id: map
  seq: 3
pose:
  orientation:
    w: 0.8292172960215567
    z: 0.5589263600678519
  position:
    x: 2.4074655271664143
    y: 1.1938271966349723
---
header:
  frame_id: map
  seq: 4
pose:
  orientation:
    w: 0.8633182752892632
    z: 0.5046598414294247
  position:
    x: 2.6242223874346586
    y: 1.6440207359665564
---
header:
  frame_id: map
  seq: 5
pose:
  orientation:
    w: 0.8910065241883679
    z: 0.45399049973954675
  position:
    x: 2.8673762078750737
    y: 2.0228993532094623
---
header:
  frame_id: map
  seq: 6
pose:
  orientation:
    w: 0.9574776984487322
    z: 0.2885072910228069
  position:
    x: 3.226529968416252
    y: 2.366937920474708
---
header:
  frame_id: map
  seq: 7
pose:
  orientation:
    w: 0.9934981047414574
    z: 0.11384865337425891
  position:
    x: 3.6832964202068585
    y: 2.56370775554963
---
header:
  frame_id: map
  seq: 8
pose:
  orientation:
    w: 0.9979221821454933
    z: -0.06443072544971754
  position:
    x: 4.180031180386398
    y: 2.5883763085304645
---
header:
  frame_id: map
  seq: 9
pose:
  orientation:
    w: 0.970609231243277
    z: -0.24066100686512282
  position:
    x: 4.654045825618051
    y: 2.4378303833690627
---
header:
  frame_id: map
  seq: 10
pose:
  orientation:
    w: 0.9124278887996988
    z: -0.40923751995696156
  position:
    x: 5.045519233785474
    y: 2.1310690263265313
---
header:
  frame_id: map
  seq: 11
pose:
  orientation:
    w: 0.8910065241883679
    z: -0.45399049973954675
  position:
    x: 5.132623792124926
    y: 2.0228993532094623
---
header:
  frame_id: map
  seq: 12
pose:
  orientation:
    w: 0.8600944877131195
    z: -0.5101347588681902
  position:
    x: 5.399817447991087
    y: 1.6006845860658658
---
header:
  frame_id: map
  seq: 13
pose:
  orientation:
    w: 0.825649413732034
    z: -0.5641835212091438
  position:
    x: 5.610836303546744
    y: 1.1477731135580187
---
header:
  frame_id: map
  seq: 14
pose:
  orientation:
    w: 0.7878127933719643
    z: -0.6159147689408516
  position:
    x: 5.762216683929685
    y: 0.671599048993009
---
header:
  frame_id: map
  seq: 15
pose:
  orientation:
    w: 0.7467400493227846
    z: -0.6651160039702888
  position:
    x: 5.8514738234217765
    y: 0.17997833911705685
---
header:
  frame_id: map
  seq: 16
pose:
  orientation:
    w: 0.7135889199782142
    z: -0.7005646674535662
  position:
    x: 5.860682970137451
    y: -0.31993684530603017
---
header:
  frame_id: map
  seq: 17
pose:
  orientation:
    w: 0.7135889199782142
    z: -0.7005646674535662
  position:
    x: 5.8698921168531255
    y: -0.8198520297291172
---
header:
  frame_id: map
  seq: 18
pose:
  orientation:
    w: 0.7071067811865476
    z: -0.7071067811865475
  position:
    x: 5.877457514062631
    y: -1.2305368692688172
---
header:
  frame_id: map
  seq: 19
pose:
  orientation:
    w: 0.6603581572574675
    z: -0.7509508000818176
  position:
    x: 5.845450109020421
    y: -1.7291682815882876
---
header:
  frame_id: map
  seq: 20
pose:
  orientation:
    w: 0.6108969591052001
    z: -0.7917101144712119
  position:
    x: 5.749953265164319
    y: -2.219615131045769
---
header:
  frame_id: map
  seq: 21
pose:
  orientation:
    w: 0.558926360067852
    z: -0.8292172960215566
  position:
    x: 5.592534472833586
    y: -2.6938271966349725
---
header:
  frame_id: map
  seq: 22
pose:
  orientation:
    w: 0.5046598414294245
    z: -0.8633182752892632
  position:
    x: 5.375777612565341
    y: -3.1440207359665564
---
header:
  frame_id: map
  seq: 23
pose:
  orientation:
    w: 0.4539904997395468
    z: -0.8910065241883678
  position:
    x: 5.132623792124926
    y: -3.5228993532094623
---
header:
  frame_id: map
  seq: 24
pose:
  orientation:
    w: 0.2885072910228068
    z: -0.9574776984487322
  position:
    x: 4.773470031583749
    y: -3.866937920474708
---
header:
  frame_id: map
  seq: 25
pose:
  orientation:
    w: 0.11384865337425897
    z: -0.9934981047414574
  position:
    x: 4.316703579793141
    y: -4.06370775554963
---
header:
  frame_id: map
  seq: 26
pose:
  orientation:
    w: 0.06443072544971738
    z: 0.9979221821454933
  position:
    x: 3.819968819613602
    y: -4.088376308530465
---
header:
  frame_id: map
  seq: 27
pose:
  orientation:
    w: 0.24066100686512262
    z: 0.9706092312432771
  position:
    x: 3.3459541743819488
    y: -3.937830383369063
---
header:
  frame_id: map
  seq: 28
pose:
  orientation:
    w: 0.4092375199569614
    z: 0.9124278887996988
  position:
    x: 2.954480766214526
    y: -3.6310690263265317
---
header:
  frame_id: map
  seq: 29
pose:
  orientation:
    w: 0.45399049973954664
    z: 0.8910065241883679
  position:
    x: 2.8673762078750737
    y: -3.522899353209463
---
header:
  frame_id: map
  seq: 30
pose:
  orientation:
    w: 0.5101347588681898
    z: 0.8600944877131197
  position:
    x: 2.6001825520089126
    y: -3.1006845860658663
---
header:
  frame_id: map
  seq: 31
pose:
  orientation:
    w: 0.564183521209144
    z: 0.825649413732034
  position:
    x: 2.3891636964532554
    y: -2.6477731135580194
---
header:
  frame_id: map
  seq: 32
pose:
  orientation:
    w: 0.6159147689408517
    z: 0.7878127933719642
  position:
    x: 2.2377833160703147
    y: -2.1715990489930097
---
header:
  frame_id: map
  seq: 33
pose:
  orientation:
    w: 0.6651160039702887
    z: 0.7467400493227847
  position:
    x: 2.148526176578223
    y: -1.6799783391170577
---
header:
  frame_id: map
  seq: 34
pose:
  orientation:
    w: 0.700564667453566
    z: 0.7135889199782144
  position:
    x: 2.139317029862549
    y: -1.1800631546939706
---
header:
  frame_id: map
  seq: 35
pose:
  orientation:
    w: 0.700564667453566
    z: 0.7135889199782144
  position:
    x: 2.130107883146875
    y: -0.6801479702708835
