---
header:
  frame_id: map
  seq: 0
pose:
  orientation:
    w: 6.123233995736766e-17
    z: 1.0
  position:
    x: -2.233688103937537
    y: 0.011449676604731174
---
header:
  frame_id: map
  seq: 1
pose:
  orientation:
    w: 0.1187666211064641
    z: 0.9929221972093049
  position:
    x: -2.7289773643509894
    y: 0.070692819818726
---
header:
  frame_id: map
  seq: 2
pose:
  orientation:
    w: 0.2358520287683106
    z: 0.9717889794219072
  position:
    x: -3.196321393729177
    y: 0.24507963039606873
---
header:
  frame_id: map
  seq: 3
pose:
  orientation:
    w: 0.3179045343463885
    z: 0.9481227278374914
  position:
    x: -3.595258100771183
    y: 0.546492144692474
---
header:
  frame_id: map
  seq: 4
pose:
  orientation:
    w: 0.30901699437494745
    z: 0.9510565162951535
  position:
    x: -3.6228993532094624
    y: 0.5673762078750737
---
header:
  frame_id: map
  seq: 5
pose:
  orientation:
    w: 0.4730335115039993
    z: 0.8810444353119743
  position:
    x: -3.9669379204747077
    y: 0.9265299684162519
---
header:
  frame_id: map
  seq: 6
pose:
  orientation:
    w: 0.6220060921287721
    z: 0.7830124017885626
  position:
    x: -4.16370775554963
    y: 1.3832964202068587
---
header:
  frame_id: map
  seq: 7
pose:
  orientation:
    w: 0.7511969449738193
    z: 0.6600781392092914
  position:
    x: -4.188376308530464
    y: 1.880031180386398
---
header:
  frame_id: map
  seq: 8
pose:
  orientation:
    w: 0.8564973992158936
    z: 0.5161513393728724
  position:
    x: -4.037830383369062
    y: 2.3540458256180514
---
header:
  frame_id: map
  seq: 9
pose:
  orientation:
    w: 0.9345585729915247
    z: 0.3558093220364596
  position:
    x: -3.731069026326531
    y: 2.7455192337854744
---
header:
  frame_id: map
  seq: 10
pose:
  orientation:
    w: 0.9510565162951535
    z: 0.3090169943749474
  position:
    x: -3.4680371337517304
    y: 2.9874860115826585
---
header:
  frame_id: map
  seq: 11
pose:
  orientation:
    w: 0.9810260301163986
    z: 0.19387606410812805
  position:
    x: -3.032517459065211
    y: 3.2306810248122213
---
header:
  frame_id: map
  seq: 12
pose:
  orientation:
    w: 0.9971085263902387
    z: 0.07599070074612166
  position:
    x: -2.5519262016269098
    y: 3.364297059675745
---
header:
  frame_id: map
  seq: 13
pose:
  orientation:
    w: 0.9999813526955232
    z: 0.006106902752752092
  position:
    x: -2.0519634958881414
    y: 3.3704038485512218
---
header:
  frame_id: map
  seq: 14
pose:
  orientation:
    w: 0.9999813526955232
    z: 0.006106902752752092
  position:
    x: -1.552000790149373
    y: 3.3765106374266987
---
header:
  frame_id: map
  seq: 15
pose:
  orientation:
    w: 0.9999813526955232
    z: 0.006106902752752092
  position:
    x: -1.0520380844106048
    y: 3.3826174263021755
---
header:
  frame_id: map
  seq: 16
pose:
  orientation:
    w: 1.0
    z: 0.0
  position:
    x: -0.5663118960624632
    y: 3.3885503233952687
---
header:
  frame_id: map
  seq: 17
pose:
  orientation:
    w: 0.9929221972093049
    z: -0.11876662110646402
  position:
    x: -0.07102263564901112
    y: 3.329307180181274
---
header:
  frame_id: map
  seq: 18
pose:
  orientation:
    w: 0.9717889794219072
    z: -0.2358520287683106
  position:
    x: 0.39632139372917674
    y: 3.154920369603931
---
header:
  frame_id: map
  seq: 19
pose:
  orientation:
    w: 0.9481227278374915
    z: -0.31790453434638816
  position:
    x: 0.7952581007711825
    y: 2.853507855307526
---
header:
  frame_id: map
  seq: 20
pose:
  orientation:
    w: 0.9510565162951535
    z: -0.3090169943749474
  position:
    x: 0.8228993532094626
    y: 2.8326237921249264
---
header:
  frame_id: map
  seq: 21
pose:
  orientation:
    w: 0.8810444353119743
    z: -0.4730335115039993
  position:
    x: 1.166937920474708
    y: 2.473470031583748
---
header:
  frame_id: map
  seq: 22
pose:
  orientation:
    w: 0.7830124017885626
    z: -0.6220060921287722
  position:
    x: 1.3637077555496298
    y: 2.016703579793141
---
header:
  frame_id: map
  seq: 23
pose:
  orientation:
    w: 0.6600781392092913
    z: -0.7511969449738194
  position:
    x: 1.3883763085304648
    y: 1.519968819613602
---
header:
  frame_id: map
  seq: 24
pose:
  orientation:
    w: 0.5161513393728725
    z: -0.8564973992158936
  position:
    x: 1.237830383369063
    y: 1.0459541743819485
---
header:
  frame_id: map
  seq: 25
pose:
  orientation:
    w: 0.3558093220364598
    z: -0.9345585729915246
  position:
    x: 0.9310690263265315
    y: 0.6544807662145262
---
header:
  frame_id: map
  seq: 26
pose:
  orientation:
    w: 0.30901699437494745
    z: -0.9510565162951535
  position:
    x: 0.6680371337517301
    y: 0.41251398841734144
---
header:
  frame_id: map
  seq: 27
pose:
  orientation:
    w: 0.19387606410812808
    z: -0.9810260301163986
  position:
    x: 0.2325174590652117
    y: 0.16931897518777883
---
header:
  frame_id: map
  seq: 28
pose:
  orientation:
    w: 0.07599070074612169
    z: -0.9971085263902387
  position:
    x: -0.24807379837309007
    y: 0.03570294032425503
---
header:
  frame_id: map
  seq: 29
pose:
  orientation:
    w: 0.006106902752752052
    z: -0.9999813526955232
  position:
    x: -0.7480365041118584
    y: 0.02959615144877792
---
header:
  frame_id: map
  seq: 30
pose:
  orientation:
    w: 0.006106902752752052
    z: -0.9999813526955232
  position:
    x: -1.2479992098506267
    y: 0.02348936257330103
---
header:
  frame_id: map
  seq: 31
pose:
  orientation:
    w: 0.006106902752752052
    z: -0.9999813526955232
  position:
    x: -1.747961915589395
    y: 0.017382573697823922
