header:
  seq: 0
  frame_id: map
pose:
  position:
    x: 2.322542485937369
    y: -1.230536869268818
  orientation:
    z: -0.7071067811865475
    w: 0.7071067811865476
---
header:
  seq: 1
  frame_id: map
pose:
  position:
    x: 2.35454989097958
    y: -1.729168281588288
  orientation:
    z: -0.6603581572574676
    w: 0.7509508000818175
---
header:
  seq: 2
  frame_id: map
pose:
  position:
    x: 2.450046734835682
    y: -2.219615131045769
  orientation:
    z: -0.6108969591052001
    w: 0.7917101144712119
---
header:
  seq: 3
  frame_id: map
pose:
  position:
    x: 2.607465527166415
    y: -2.693827196634972
  orientation:
    z: -0.5589263600678519
    w: 0.8292172960215567
---
header:
  seq: 4
  frame_id: map
pose:
  position:
    x: 2.82422238743466
    y: -3.144020735966556
  orientation:
    z: -0.5046598414294247
    w: 0.8633182752892632
---
header:
  seq: 5
  frame_id: map
pose:
  position:
    x: 3.067376207875074
    y: -3.522899353209463
  orientation:
    z: -0.4539904997395467
    w: 0.8910065241883679
---
header:
  seq: 6
  frame_id: map
pose:
  position:
    x: 3.426529968416252
    y: -3.866937920474708
  orientation:
    z: -0.2885072910228069
    w: 0.9574776984487322
---
header:
  seq: 7
  frame_id: map
pose:
  position:
    x: 3.883296420206859
    y: -4.06370775554963
  orientation:
    z: -0.1138486533742589
    w: 0.9934981047414574
---
header:
  seq: 8
  frame_id: map
pose:
  position:
    x: 4.380031180386398
    y: -4.088376308530465
  orientation:
    z: 0.06443072544971754
    w: 0.9979221821454933
---
header:
  seq: 9
  frame_id: map
pose:
  position:
    x: 4.854045825618051
    y: -3.937830383369063
  orientation:
    z: 0.2406610068651228
    w: 0.970609231243277
---
header:
  seq: 10
  frame_id: map
pose:
  position:
    x: 5.245519233785474
    y: -3.631069026326531
  orientation:
    z: 0.4092375199569616
    w: 0.9124278887996988
---
header:
  seq: 11
  frame_id: map
pose:
  position:
    x: 5.332623792124926
    y: -3.522899353209462
  orientation:
    z: 0.4539904997395467
    w: 0.8910065241883679
---
header:
  seq: 12
  frame_id: map
pose:
  position:
    x: 5.599817447991088
    y: -3.100684586065866
  orientation:
    z: 0.5101347588681902
    w: 0.8600944877131195
---
header:
  seq: 13
  frame_id: map
pose:
  position:
    x: 5.810836303546745
    y: -2.647773113558019
  orientation:
    z: 0.5641835212091438
    w: 0.825649413732034
---
header:
  seq: 14
  frame_id: map
pose:
  position:
    x: 5.962216683929686
    y: -2.171599048993009
  orientation:
    z: 0.6159147689408516
    w: 0.7878127933719643
---
header:
  seq: 15
  frame_id: map
pose:
  position:
    x: 6.051473823421777
    y: -1.679978339117057
  orientation:
    z: 0.6651160039702888
    w: 0.7467400493227846
---
header:
  seq: 16
  frame_id: map
pose:
  position:
    x: 6.060682970137451
    y: -1.18006315469397
  orientation:
    z: 0.7005646674535662
    w: 0.7135889199782142
---
header:
  seq: 17
  frame_id: map
pose:
  position:
    x: 6.069892116853126
    y: -0.6801479702708828
  orientation:
    z: 0.7005646674535662
    w: 0.7135889199782142
---
header:
  seq: 18
  frame_id: map
pose:
  position:
    x: 6.077457514062631
    y: -0.269463130731183
  orientation:
    z: 0.7071067811865475
    w: 0.7071067811865476
---
header:
  seq: 19
  frame_id: map
pose:
  position:
    x: 6.04545010902042
    y: 0.2291682815882874
  orientation:
    z: 0.7509508000818176
    w: 0.6603581572574675
---
header:
  seq: 20
  frame_id: map
pose:
  position:
    x: 5.949953265164319
    y: 0.7196151310457686
  orientation:
    z: 0.7917101144712119
    w: 0.6108969591052001
---
header:
  seq: 21
  frame_id: map
pose:
  position:
    x: 5.792534472833585
    y: 1.193827196634972
  orientation:
    z: 0.8292172960215566
    w: 0.558926360067852
---
header:
  seq: 22
  frame_id: map
pose:
  position:
    x: 5.575777612565341
    y: 1.644020735966556
  orientation:
    z: 0.8633182752892632
    w: 0.5046598414294245
---
header:
  seq: 23
  frame_id: map
pose:
  position:
    x: 5.332623792124926
    y: 2.022899353209462
  orientation:
    z: 0.8910065241883678
    w: 0.4539904997395468
---
header:
  seq: 24
  frame_id: map
pose:
  position:
    x: 4.973470031583748
    y: 2.366937920474708
  orientation:
    z: 0.9574776984487322
    w: 0.2885072910228068
---
header:
  seq: 25
  frame_id: map
pose:
  position:
    x: 4.516703579793141
    y: 2.56370775554963
  orientation:
    z: 0.9934981047414574
    w: 0.113848653374259
---
header:
  seq: 26
  frame_id: map
pose:
  position:
    x: 4.019968819613602
    y: 2.588376308530465
  orientation:
    z: -0.9979221821454933
    w: 0.06443072544971738
---
header:
  seq: 27
  frame_id: map
pose:
  position:
    x: 3.545954174381949
    y: 2.437830383369063
  orientation:
    z: -0.9706092312432771
    w: 0.2406610068651226
---
header:
  seq: 28
  frame_id: map
pose:
  position:
    x: 3.154480766214526
    y: 2.131069026326531
  orientation:
    z: -0.9124278887996988
    w: 0.4092375199569614
---
header:
  seq: 29
  frame_id: map
pose:
  position:
    x: 3.067376207875075
    y: 2.022899353209462
  orientation:
    z: -0.8910065241883679
    w: 0.4539904997395466
---
header:
  seq: 30
  frame_id: map
pose:
  position:
    x: 2.800182552008914
    y: 1.600684586065866
  orientation:
    z: -0.8600944877131197
    w: 0.5101347588681898
---
header:
  seq: 31
  frame_id: map
pose:
  position:
    x: 2.589163696453257
    y: 1.147773113558019
  orientation:
    z: -0.825649413732034
    w: 0.5641835212091439
---
header:
  seq: 32
  frame_id: map
pose:
  position:
    x: 2.437783316070316
    y: 0.6715990489930097
  orientation:
    z: -0.7878127933719642
    w: 0.6159147689408517
---
header:
  seq: 33
  frame_id: map
pose:
  position:
    x: 2.348526176578224
    y: 0.1799783391170575
  orientation:
    z: -0.7467400493227847
    w: 0.6651160039702887
---
header:
  seq: 34
  frame_id: map
pose:
  position:
    x: 2.33931702986255
    y: -0.3199368453060295
  orientation:
    z: -0.7135889199782144
    w: 0.700564667453566
---
header:
  seq: 35
  frame_id: map
pose:
  position:
    x: 2.330107883146876
    y: -0.8198520297291165
  orientation:
    z: -0.7135889199782144
    w: 0.700564667453566